[
    {
        "name": "景里酒店(北京首都机场店)",
        "city": "北京",
        "lat": 40.0958164545745,
        "lng": 116.54293354488897
    },
    {
        "name": "北京望京798艺术区亚朵酒店",
        "city": "北京",
        "lat": 39.989579207196364,
        "lng": 116.48785277474752
    },
    {
        "name": "建国铂萃酒店(北京国贸店)",
        "city": "北京",
        "lat": 39.91645575947582,
        "lng": 116.46703499370652
    },
    {
        "name": "北京亦庄新城马驹桥亚朵酒店",
        "city": "北京",
        "lat": 39.74307440176669,
        "lng": 116.55298001405147
    },
    {
        "name": "北京天坛漫心酒店",
        "city": "北京",
        "lat": 39.8882429566928,
        "lng": 116.41724596166326
    },
    {
        "name": "北京温都水城湖湾酒店",
        "city": "北京",
        "lat": 40.11060152257366,
        "lng": 116.38233682140944
    },
    {
        "name": "桔子水晶北京南站木樨园酒店",
        "city": "北京",
        "lat": 39.87538897131966,
        "lng": 116.40657543966297
    },
    {
        "name": "北京总部基地CitiGO欢阁酒店",
        "city": "北京",
        "lat": 39.83018741316598,
        "lng": 116.29437312892249
    },
    {
        "name": "城市有爱酒店(北京南站西铁营地铁站店)",
        "city": "北京",
        "lat": 39.87230109230067,
        "lng": 116.36200699992148
    },
    {
        "name": "北京国贸商务区希尔顿欢朋酒店",
        "city": "北京",
        "lat": 39.914585531429424,
        "lng": 116.50836387428738
    },
    {
        "name": "桔子水晶北京国贸商务区四惠酒店",
        "city": "北京",
        "lat": 39.914585531429424,
        "lng": 116.50836387428738
    },
    {
        "name": "北京望京科技园亚朵酒店",
        "city": "北京",
        "lat": 39.98282800687792,
        "lng": 116.50742325858789
    },
    {
        "name": "北京和乔丽致酒店",
        "city": "北京",
        "lat": 39.91645575947582,
        "lng": 116.46703499370652
    },
    {
        "name": "北京商都酒店",
        "city": "北京",
        "lat": 39.871280236128875,
        "lng": 116.38548789747735
    },
    {
        "name": "北京雍景台酒店",
        "city": "北京",
        "lat": 39.94065173990771,
        "lng": 116.46061309744626
    },
    {
        "name": "泰莲庭溪畔酒店(北京雁栖湖店)",
        "city": "北京",
        "lat": 40.43560023685471,
        "lng": 116.59639538884035
    },
    {
        "name": "北京方恒假日酒店",
        "city": "北京",
        "lat": 39.9906946104431,
        "lng": 116.48924110591318
    },
    {
        "name": "北京华威商务酒店",
        "city": "北京",
        "lat": 39.92232634728754,
        "lng": 116.37034318522353
    },
    {
        "name": "北京国际温泉酒店",
        "city": "北京",
        "lat": 40.038776368628476,
        "lng": 116.32627761690652
    },
    {
        "name": "北京西直门宾馆",
        "city": "北京",
        "lat": 39.94611920060475,
        "lng": 116.35066786913012
    },
    {
        "name": "北京明豪华美达酒店(首都机场新国展店)",
        "city": "北京",
        "lat": 40.07644208449339,
        "lng": 116.5561350426636
    },
    {
        "name": "北京新疆大厦嘉宾楼",
        "city": "北京",
        "lat": 39.94611920060475,
        "lng": 116.35066786913012
    },
    {
        "name": "北京丽泽金融商务区亚朵酒店",
        "city": "北京",
        "lat": 39.872714400408114,
        "lng": 116.34565020404305
    },
    {
        "name": "懿庭臻舍酒店(北京前门步行街店)",
        "city": "北京",
        "lat": 39.8882429566928,
        "lng": 116.41724596166326
    },
    {
        "name": "北京新国展希尔顿欢朋酒店",
        "city": "北京",
        "lat": 40.13235932778525,
        "lng": 116.61605309814576
    },
    {
        "name": "阳光嘉悦酒店",
        "city": "北京",
        "lat": 39.951403141271754,
        "lng": 116.65970984762518
    },
    {
        "name": "桔子水晶北京天安门王府井酒店",
        "city": "北京",
        "lat": 39.92223158631893,
        "lng": 116.4186675301328
    },
    {
        "name": "北京通州梨园地铁站亚朵酒店",
        "city": "北京",
        "lat": 39.884725196055534,
        "lng": 116.68494675279193
    },
    {
        "name": "北京总部基地美居酒店",
        "city": "北京",
        "lat": 39.83018741316598,
        "lng": 116.29437312892249
    },
    {
        "name": "北京浦金凯航国际酒店",
        "city": "北京",
        "lat": 39.81346655758298,
        "lng": 116.15419740494018
    },
    {
        "name": "秋果酒店(北京欢乐谷地铁站店)",
        "city": "北京",
        "lat": 39.87392669177137,
        "lng": 116.50099740978337
    },
    {
        "name": "秋果酒店(北京三元桥使馆区店)",
        "city": "北京",
        "lat": 39.95312080699683,
        "lng": 116.48250291628284
    },
    {
        "name": "秋果酒店(北京西站店)",
        "city": "北京",
        "lat": 39.88700206215596,
        "lng": 116.32588182349882
    },
    {
        "name": "北京后海鼓楼四合院漫心府",
        "city": "北京",
        "lat": 39.93971212485587,
        "lng": 116.38862999049014
    },
    {
        "name": "秋果酒店(北京总部基地店)",
        "city": "北京",
        "lat": 39.79931777907223,
        "lng": 116.15885484951775
    },
    {
        "name": "古北水镇新青年艺术酒店",
        "city": "北京",
        "lat": 40.654743248094924,
        "lng": 117.27835497606735
    },
    {
        "name": "北京小汤一瓢温泉度假民宿",
        "city": "北京",
        "lat": 40.181753121613085,
        "lng": 116.38598178584672
    },
    {
        "name": "北京一川Year Swang私汤露营民宿",
        "city": "北京",
        "lat": 40.654743248094924,
        "lng": 117.27835497606735
    },
    {
        "name": "北京月亮河璞玥酒店",
        "city": "北京",
        "lat": 39.9235750354989,
        "lng": 116.6678319667242
    },
    {
        "name": "桔子水晶北京国贸建国门酒店",
        "city": "北京",
        "lat": 40.21711931731384,
        "lng": 116.23893186877987
    },
    {
        "name": "秋果酒店(北京国贸朝阳路店)",
        "city": "北京",
        "lat": 39.91645575947582,
        "lng": 116.46703499370652
    },
    {
        "name": "北京西西友谊酒店",
        "city": "北京",
        "lat": 39.92232634728754,
        "lng": 116.37034318522353
    },
    {
        "name": "秋果S1918庭院式酒店(北京天安门店)",
        "city": "北京",
        "lat": 39.8882429566928,
        "lng": 116.41724596166326
    },
    {
        "name": "麗枫酒店(北京首都机场新国展店)",
        "city": "北京",
        "lat": 40.13632697443098,
        "lng": 116.66346395618193
    },
    {
        "name": "格兰云天·阅酒店(北京奥宇店)",
        "city": "北京",
        "lat": 39.55711805706774,
        "lng": 116.3847088869391
    },
    {
        "name": "北京海淀万枫酒店",
        "city": "北京",
        "lat": 40.08567586408375,
        "lng": 116.19702349131452
    },
    {
        "name": "北京厦门大厦颐豪酒店(中关村知春路地铁站店)",
        "city": "北京",
        "lat": 39.9865540792657,
        "lng": 116.34273071113563
    },
    {
        "name": "北京泰康研修院",
        "city": "北京",
        "lat": 40.10896048367185,
        "lng": 116.27161482831883
    },
    {
        "name": "朗丽兹酒店(北京亦庄桥地铁站店)",
        "city": "北京",
        "lat": 39.80631829473257,
        "lng": 116.50232762058255
    },
    {
        "name": "北京大红门银泰亚朵酒店",
        "city": "北京",
        "lat": 39.85333418823556,
        "lng": 116.38437759186701
    },
    {
        "name": "北京上地清河高铁站亚朵S酒店",
        "city": "北京",
        "lat": 40.04872702831723,
        "lng": 116.31676725647237
    },
    {
        "name": "北京西站丽泽商务区希尔顿欢朋酒店",
        "city": "北京",
        "lat": 39.89886454696474,
        "lng": 116.32903631312766
    },
    {
        "name": "秋果酒店(北京丽泽金融商务区店)",
        "city": "北京",
        "lat": 39.90148363742936,
        "lng": 116.32782378035029
    },
    {
        "name": "时光漫步S酒店(北京央视店)",
        "city": "北京",
        "lat": 39.91509017156495,
        "lng": 116.48740829318118
    },
    {
        "name": "龙庆峡蒲里日记·冬至汤泉民宿",
        "city": "北京",
        "lat": 40.53123201472802,
        "lng": 115.97612100369474
    },
    {
        "name": "映向城酒店(北京通州万达广场果园店)",
        "city": "北京",
        "lat": 39.90865872123388,
        "lng": 116.6929419413224
    },
    {
        "name": "桔子水晶北京朝阳门酒店",
        "city": "北京",
        "lat": 39.92089710266874,
        "lng": 116.446149300769
    },
    {
        "name": "北京N31酒店",
        "city": "北京",
        "lat": 39.97332037341299,
        "lng": 116.40706600430198
    },
    {
        "name": "桔子水晶北京国贸合生汇酒店",
        "city": "北京",
        "lat": 39.89988132206724,
        "lng": 116.4859290534979
    },
    {
        "name": "北京便宜坊酒店(天安门广场店)",
        "city": "北京",
        "lat": 39.9096519665138,
        "lng": 116.4041774131041
    },
    {
        "name": "桔子水晶北京南站西铁营酒店",
        "city": "北京",
        "lat": 39.869129659875256,
        "lng": 116.35936598172215
    },
    {
        "name": "北京亦庄通明湖智选假日酒店",
        "city": "北京",
        "lat": 39.800668160131586,
        "lng": 116.58785816276519
    },
    {
        "name": "北京天坛东门亚朵酒店",
        "city": "北京",
        "lat": 29.581195081901193,
        "lng": 106.462851361949
    },
    {
        "name": "桔子水晶北京朝阳公园酒店",
        "city": "北京",
        "lat": 40.364042398139034,
        "lng": 116.80776398042163
    },
    {
        "name": "桔子水晶北京亦庄经济开发区酒店",
        "city": "北京",
        "lat": 39.80693618918598,
        "lng": 116.56838469591987
    },
    {
        "name": "桔子酒店(北京大兴生物医药基地龙湖天街店)",
        "city": "北京",
        "lat": 39.694702087643186,
        "lng": 116.32552699282238
    },
    {
        "name": "北京天安门王府井美仑酒店",
        "city": "北京",
        "lat": 39.92223158631893,
        "lng": 116.4186675301328
    },
    {
        "name": "秋果酒店(北京中关村生命科学园店)",
        "city": "北京",
        "lat": 40.125153089473095,
        "lng": 116.29810100695833
    },
    {
        "name": "北京中关村北外亚朵S酒店",
        "city": "北京",
        "lat": 39.735316250123894,
        "lng": 116.18023928167445
    },
    {
        "name": "北京达园宾馆",
        "city": "北京",
        "lat": 40.001385090729435,
        "lng": 116.30005751635908
    },
    {
        "name": "时光赞歌花园酒店(北京大兴旺兴湖公园店)",
        "city": "北京",
        "lat": 39.55711805706774,
        "lng": 116.3847088869391
    },
    {
        "name": "花筑·北京长城玖号院民宿",
        "city": "北京",
        "lat": 40.43500791245655,
        "lng": 116.34021491672438
    },
    {
        "name": "北京天通苑立水桥地铁站轻居酒店",
        "city": "北京",
        "lat": 40.071134211955815,
        "lng": 116.43160429727362
    },
    {
        "name": "秋果酒店(北京三里屯工体店)",
        "city": "北京",
        "lat": 39.94793704928275,
        "lng": 116.44598562950506
    },
    {
        "name": "北京中关村生命科学园亚朵酒店",
        "city": "北京",
        "lat": 40.10896048367185,
        "lng": 116.27161482831883
    },
    {
        "name": "北京雍和宫漫心酒店",
        "city": "北京",
        "lat": 39.96718523826271,
        "lng": 116.44685824347746
    },
    {
        "name": "秋果酒店(北京中关村店)",
        "city": "北京",
        "lat": 39.971079092716124,
        "lng": 116.35786500304553
    },
    {
        "name": "北京南锣鼓巷古韵漫心府",
        "city": "北京",
        "lat": 40.373328406928565,
        "lng": 116.82675945890509
    },
    {
        "name": "花筑·桂庭俊舍(北京宽沟店)",
        "city": "北京",
        "lat": 40.34971033275262,
        "lng": 116.56478841964123
    },
    {
        "name": "北京亚运村国家会议中心亚朵酒店",
        "city": "北京",
        "lat": 39.991495530789436,
        "lng": 116.40725779252836
    },
    {
        "name": "北京右安门西铁营地铁站亚朵酒店",
        "city": "北京",
        "lat": 39.87230109230067,
        "lng": 116.36200699992148
    },
    {
        "name": "花韵丁香酒店(北京南站牛街店)",
        "city": "北京",
        "lat": 39.8882429566928,
        "lng": 116.41724596166326
    },
    {
        "name": "秋果酒店(北京望京SOHO店)",
        "city": "北京",
        "lat": 39.98282800687792,
        "lng": 116.50742325858789
    },
    {
        "name": "北京安贞地坛亚朵酒店",
        "city": "北京",
        "lat": 39.97722949504023,
        "lng": 116.41167422173761
    },
    {
        "name": "桔子水晶北京天坛酒店",
        "city": "北京",
        "lat": 39.872102916713956,
        "lng": 116.42907925031564
    },
    {
        "name": "北京观唐汇酒店",
        "city": "北京",
        "lat": 40.07644208449339,
        "lng": 116.5561350426636
    },
    {
        "name": "秋果酒店(北京新国展首都机场三店)",
        "city": "北京",
        "lat": 40.12161002613128,
        "lng": 116.61742499032059
    },
    {
        "name": "桔子水晶北京丽泽商务区天坛医院酒店",
        "city": "北京",
        "lat": 39.84759959400033,
        "lng": 116.32356275799425
    },
    {
        "name": "秋果酒店(北京复兴门中央音乐学院店)",
        "city": "北京",
        "lat": 39.91816026742686,
        "lng": 116.38320422520988
    },
    {
        "name": "北京天安门王府井合院漫心府",
        "city": "北京",
        "lat": 39.92223158631893,
        "lng": 116.4186675301328
    },
    {
        "name": "北京亦庄经济开发区希尔顿欢朋酒店",
        "city": "北京",
        "lat": 39.833661104746106,
        "lng": 116.56549170302499
    },
    {
        "name": "北京稻香湖景酒店",
        "city": "北京",
        "lat": 40.097012826794725,
        "lng": 116.1880680141939
    },
    {
        "name": "北京盛捷大兴酒店",
        "city": "北京",
        "lat": 39.77213179669849,
        "lng": 116.35324277204393
    },
    {
        "name": "北京运河商务区希尔顿欢朋酒店",
        "city": "北京",
        "lat": 39.9235750354989,
        "lng": 116.6678319667242
    },
    {
        "name": "北京中国石化会议中心",
        "city": "北京",
        "lat": 40.249710307698436,
        "lng": 116.27074643638234
    },
    {
        "name": "花筑奢·北京怀柔兰亭温泉度假酒店(慕田峪长城店)",
        "city": "北京",
        "lat": 40.42565502480201,
        "lng": 116.5544597028875
    },
    {
        "name": "北京延庆源宿酒店",
        "city": "北京",
        "lat": 40.36795086400071,
        "lng": 115.98449143497197
    },
    {
        "name": "明珠酒店(北京首都机场新国展店)",
        "city": "北京",
        "lat": 40.07644208449339,
        "lng": 116.5561350426636
    },
    {
        "name": "桔子水晶北京长楹天街酒店",
        "city": "北京",
        "lat": 39.92606971479817,
        "lng": 116.56073580416351
    },
    {
        "name": "北京雍和宫和平里轻居酒店",
        "city": "北京",
        "lat": 39.95403576220714,
        "lng": 116.42377906814566
    },
    {
        "name": "桔子水晶北京国贸中心酒店",
        "city": "北京",
        "lat": 39.91645575947582,
        "lng": 116.46703499370652
    },
    {
        "name": "北京麦壳天香酒店",
        "city": "北京",
        "lat": 40.438570222692306,
        "lng": 116.68100148482267
    },
    {
        "name": "时仓Storage民宿",
        "city": "北京",
        "lat": 40.438570222692306,
        "lng": 116.68100148482267
    },
    {
        "name": "北京国贸CBD亚朵S酒店xFunsCenter",
        "city": "北京",
        "lat": 39.91509017156495,
        "lng": 116.48740829318118
    },
    {
        "name": "美朋·轻奢酒店(北京亚运村奥体中心店)",
        "city": "北京",
        "lat": 40.048730894538444,
        "lng": 116.42796292605838
    },
    {
        "name": "隐卓酒店",
        "city": "北京",
        "lat": 39.95312080699683,
        "lng": 116.48250291628284
    },
    {
        "name": "北京远航国际酒店(首都机场新国展店)",
        "city": "北京",
        "lat": 40.07644208449339,
        "lng": 116.5561350426636
    },
    {
        "name": "北京三里屯太古里CitiGO欢阁酒店",
        "city": "北京",
        "lat": 39.94793704928275,
        "lng": 116.44598562950506
    },
    {
        "name": "北京建国门漫心酒店",
        "city": "北京",
        "lat": 39.94065173990771,
        "lng": 116.46061309744626
    },
    {
        "name": "秋果酒店(北京建国门CBD店)",
        "city": "北京",
        "lat": 39.91645575947582,
        "lng": 116.46703499370652
    },
    {
        "name": "北京天安门王府井步行街亚朵酒店",
        "city": "北京",
        "lat": 39.92223158631893,
        "lng": 116.4186675301328
    },
    {
        "name": "栖乡迹民宿",
        "city": "北京",
        "lat": 40.42642098622396,
        "lng": 116.35249502253743
    },
    {
        "name": "THE HUMBLE 厚居酒店(北京国家会议中心鸟巢店)",
        "city": "北京",
        "lat": 39.991495530789436,
        "lng": 116.40725779252836
    },
    {
        "name": "北京望京希尔顿欢朋酒店",
        "city": "北京",
        "lat": 39.98282800687792,
        "lng": 116.50742325858789
    },
    {
        "name": "瑰悦酒店(北京新国展首都机场店)",
        "city": "北京",
        "lat": 40.07644208449339,
        "lng": 116.5561350426636
    },
    {
        "name": "北京世园凯悦嘉轩酒店",
        "city": "北京",
        "lat": 40.451809240179,
        "lng": 115.96681383996696
    },
    {
        "name": "北京五棵松漫心酒店",
        "city": "北京",
        "lat": 39.914435902660614,
        "lng": 116.27817838735804
    },
    {
        "name": "建国铂萃酒店(北京环球度假区店)",
        "city": "北京",
        "lat": 39.87290378342171,
        "lng": 116.66433782778203
    },
    {
        "name": "丽柏酒店(北京通州环球度假区店)",
        "city": "北京",
        "lat": 39.87290378342171,
        "lng": 116.66433782778203
    },
    {
        "name": "朗丽兹太和府酒店(北京生命科学园地铁站店)",
        "city": "北京",
        "lat": 40.103428210344454,
        "lng": 116.28059707494366
    },
    {
        "name": "北京立水桥亚朵酒店",
        "city": "北京",
        "lat": 40.071134211955815,
        "lng": 116.43160429727362
    },
    {
        "name": "北京通州旅游度假区智选假日酒店",
        "city": "北京",
        "lat": 39.87290378342171,
        "lng": 116.66433782778203
    },
    {
        "name": "曾府酒店(北京延庆店)",
        "city": "北京",
        "lat": 40.46460746635881,
        "lng": 115.99119358201611
    },
    {
        "name": "时光漫步S酒店(北京西单金融街店)",
        "city": "北京",
        "lat": 39.91833610441613,
        "lng": 116.36119196733227
    },
    {
        "name": "北京西站六里桥亚朵酒店",
        "city": "北京",
        "lat": 39.88700206215596,
        "lng": 116.32588182349882
    },
    {
        "name": "北京国贸潘家园亚朵酒店",
        "city": "北京",
        "lat": 39.880816213626986,
        "lng": 116.46694516315553
    },
    {
        "name": "北京国展三元桥逸扉酒店",
        "city": "北京",
        "lat": 39.96718523826271,
        "lng": 116.44685824347746
    },
    {
        "name": "北京朝阳路大悦城亚朵酒店",
        "city": "北京",
        "lat": 39.930772269485026,
        "lng": 116.52481948377194
    },
    {
        "name": "北京大兴大悦春风里黄村西大街漫心酒店",
        "city": "北京",
        "lat": 39.73248809468487,
        "lng": 116.34820902728822
    },
    {
        "name": "昭桦·亭筑民宿",
        "city": "北京",
        "lat": 40.344692061301394,
        "lng": 116.04450900216936
    },
    {
        "name": "北京宝欐酒店(国贸大望路地铁站店)",
        "city": "北京",
        "lat": 39.91509017156495,
        "lng": 116.48740829318118
    },
    {
        "name": "桔子水晶北京亦庄京东总部酒店",
        "city": "北京",
        "lat": 39.79907726042958,
        "lng": 116.52550004002629
    },
    {
        "name": "北京红旗渠京隆酒店(北京南站店)",
        "city": "北京",
        "lat": 39.85333418823556,
        "lng": 116.38437759186701
    },
    {
        "name": "长城·宿集私汤度假民宿(北京八达岭店)",
        "city": "北京",
        "lat": 40.36735501214037,
        "lng": 115.96766004375736
    },
    {
        "name": "北京总部基地漫心酒店",
        "city": "北京",
        "lat": 39.83018741316598,
        "lng": 116.29437312892249
    },
    {
        "name": "北京四季御园国际大酒店",
        "city": "北京",
        "lat": 39.96852662288966,
        "lng": 116.19019556096373
    },
    {
        "name": "时光漫步S酒店(北京鸟巢奥体中心店)",
        "city": "北京",
        "lat": 39.991495530789436,
        "lng": 116.40725779252836
    },
    {
        "name": "北京朝阳北路长楹天街亚朵酒店",
        "city": "北京",
        "lat": 39.92606971479817,
        "lng": 116.56073580416351
    },
    {
        "name": "北京会议中心希尔顿欢朋酒店",
        "city": "北京",
        "lat": 40.048730894538444,
        "lng": 116.42796292605838
    },
    {
        "name": "天津南京路小白楼亚朵酒店",
        "city": "天津",
        "lat": 39.12993509314441,
        "lng": 117.20567936539359
    },
    {
        "name": "天津滨海二大街亚朵酒店",
        "city": "天津",
        "lat": 39.03372570493167,
        "lng": 117.7230179102869
    },
    {
        "name": "天津雅诗阁泰达MSD服务公寓",
        "city": "天津",
        "lat": 39.024411334667455,
        "lng": 117.70950155643101
    },
    {
        "name": "三十六号酒店(天津五大道店)",
        "city": "天津",
        "lat": 39.13002136464261,
        "lng": 117.20666651331851
    },
    {
        "name": "天津新宇盛大酒店",
        "city": "天津",
        "lat": 38.948487492347056,
        "lng": 116.95705822397463
    },
    {
        "name": "天津威斯康顿温泉酒店",
        "city": "天津",
        "lat": 39.39139509313544,
        "lng": 117.04549801838188
    },
    {
        "name": "天津站津湾广场亚朵酒店",
        "city": "天津",
        "lat": 39.144897091644374,
        "lng": 117.2257080748746
    },
    {
        "name": "天津中北·艾丽华服务公寓",
        "city": "天津",
        "lat": 39.10311152770104,
        "lng": 117.10897740605833
    },
    {
        "name": "天津银泰酒店",
        "city": "天津",
        "lat": 39.13889192681098,
        "lng": 117.18693424465577
    },
    {
        "name": "天津陆家嘴万怡酒店",
        "city": "天津",
        "lat": 39.05944264806824,
        "lng": 117.20256368256278
    },
    {
        "name": "天津西青宾馆",
        "city": "天津",
        "lat": 39.14871954401707,
        "lng": 116.99826960619478
    },
    {
        "name": "天津南开大学天开园亚朵酒店",
        "city": "天津",
        "lat": 39.116464447509756,
        "lng": 117.18011493803789
    },
    {
        "name": "格林东方酒店(天津武清体育馆店)",
        "city": "天津",
        "lat": 39.39690368639104,
        "lng": 117.02123020519927
    },
    {
        "name": "桔子水晶天津静海东方红路酒店",
        "city": "天津",
        "lat": 38.947640633937525,
        "lng": 116.97630298223709
    },
    {
        "name": "天津滨海机场空港自贸区亚朵X酒店",
        "city": "天津",
        "lat": 38.96219729407845,
        "lng": 117.72202896575097
    },
    {
        "name": "天津武清金泰假日酒店",
        "city": "天津",
        "lat": 39.382092522180464,
        "lng": 117.02324070276116
    },
    {
        "name": "天津鼓楼逸扉酒店",
        "city": "天津",
        "lat": 39.1435161194555,
        "lng": 117.15422173086553
    },
    {
        "name": "天津鼓楼亚朵酒店",
        "city": "天津",
        "lat": 39.116464447509756,
        "lng": 117.18011493803789
    },
    {
        "name": "天津京滨工业园希尔顿欢朋酒店",
        "city": "天津",
        "lat": 39.55856174157544,
        "lng": 116.82013158119136
    },
    {
        "name": "天津中北假日酒店",
        "city": "天津",
        "lat": 39.10311152770104,
        "lng": 117.10897740605833
    },
    {
        "name": "天津滨海第一大街亚朵酒店",
        "city": "天津",
        "lat": 39.03050887308863,
        "lng": 117.68889766193196
    },
    {
        "name": "吉泰精品酒店(天津滨海国际机场店)",
        "city": "天津",
        "lat": 39.17107638921579,
        "lng": 117.37306422428982
    },
    {
        "name": "天津铂悦锦绣酒店",
        "city": "天津",
        "lat": 38.85719361480678,
        "lng": 117.46541811546516
    },
    {
        "name": "美豪丽致酒店(天津五大道营口道地铁站店)",
        "city": "天津",
        "lat": 39.12993509314441,
        "lng": 117.20567936539359
    },
    {
        "name": "天津滨海中新生态城亚朵酒店",
        "city": "天津",
        "lat": 39.15796240467682,
        "lng": 117.76691890903447
    },
    {
        "name": "天津金泽大酒店",
        "city": "天津",
        "lat": 39.127247119355054,
        "lng": 117.18972599851969
    },
    {
        "name": "维也纳国际酒店(天津滨海国际机场店)",
        "city": "天津",
        "lat": 39.17107638921579,
        "lng": 117.37306422428982
    },
    {
        "name": "秋果酒店(天津梅江会展中心店)",
        "city": "天津",
        "lat": 39.04337412377777,
        "lng": 117.22081401662571
    },
    {
        "name": "美豪酒店(天津水上公园红旗南路地铁站店)",
        "city": "天津",
        "lat": 39.101184100198864,
        "lng": 117.17412440808349
    },
    {
        "name": "瑞达春天精品酒店(天津西站宜宾道地铁站店)",
        "city": "天津",
        "lat": 39.00418109347158,
        "lng": 117.3191020241694
    },
    {
        "name": "天津海河假日酒店",
        "city": "天津",
        "lat": 39.15969712320188,
        "lng": 117.19304703399007
    },
    {
        "name": "维也纳国际酒店(天津梅江会展中心大寺店)",
        "city": "天津",
        "lat": 39.04337412377777,
        "lng": 117.22081401662571
    },
    {
        "name": "天津南开喜马拉雅服务公寓",
        "city": "天津",
        "lat": 39.116464447509756,
        "lng": 117.18011493803789
    },
    {
        "name": "天津金岛假日酒店",
        "city": "天津",
        "lat": 38.947640633937525,
        "lng": 116.97630298223709
    },
    {
        "name": "映向城酒店(天津古文化街鼓楼地铁站店)",
        "city": "天津",
        "lat": 39.14731388464127,
        "lng": 117.18771639926331
    },
    {
        "name": "天津伯派乐商务酒店",
        "city": "天津",
        "lat": 39.12993509314441,
        "lng": 117.20567936539359
    },
    {
        "name": "天津滨海新区塘沽美居酒店",
        "city": "天津",
        "lat": 39.02375277243301,
        "lng": 117.66800604017804
    },
    {
        "name": "天津奥体中心亚朵酒店",
        "city": "天津",
        "lat": 39.08080027746262,
        "lng": 117.18288630036672
    },
    {
        "name": "天津生态城东方美居酒店",
        "city": "天津",
        "lat": 39.11700148967381,
        "lng": 117.7426589111098
    },
    {
        "name": "天津津湾广场漫心酒店",
        "city": "天津",
        "lat": 39.144897091644374,
        "lng": 117.2257080748746
    },
    {
        "name": "天津1958国际酒店(国家会展中心津南大学城店)",
        "city": "天津",
        "lat": 38.98661620149321,
        "lng": 117.37491931499848
    },
    {
        "name": "天津武清希尔顿欢朋酒店",
        "city": "天津",
        "lat": 39.411957880485616,
        "lng": 117.0649921462539
    },
    {
        "name": "Z漫国际酒店(天津空港滨海国际机场店)",
        "city": "天津",
        "lat": 38.96219729407845,
        "lng": 117.72202896575097
    },
    {
        "name": "丽呈東谷酒店(天津南京路海光寺店)",
        "city": "天津",
        "lat": 39.127247119355054,
        "lng": 117.18972599851969
    },
    {
        "name": "美豪丽致酒店(天津西站长虹公园地铁站店)",
        "city": "天津",
        "lat": 39.116464447509756,
        "lng": 117.18011493803789
    },
    {
        "name": "格林东方酒店(天津东丽开发区新立地铁站店)",
        "city": "天津",
        "lat": 39.136599724831555,
        "lng": 117.3682728423607
    },
    {
        "name": "雅阁澳斯特酒店(天津武清万达广场佛罗伦萨店)",
        "city": "天津",
        "lat": 39.411957880485616,
        "lng": 117.0649921462539
    },
    {
        "name": "桔子水晶天津滨江道步行街酒店",
        "city": "天津",
        "lat": 38.948282092238394,
        "lng": 117.34420202757643
    },
    {
        "name": "蔚徕酒店(天津滨海机场空港自贸区店)",
        "city": "天津",
        "lat": 38.96219729407845,
        "lng": 117.72202896575097
    },
    {
        "name": "天津滨海高铁站亚朵酒店",
        "city": "天津",
        "lat": 39.01457773638679,
        "lng": 117.66914670851462
    },
    {
        "name": "美豪丽致酒店(天津梅江会展国展中心旗舰店)",
        "city": "天津",
        "lat": 39.04337412377777,
        "lng": 117.22081401662571
    },
    {
        "name": "丽呈東谷酒店(天津滨海新区生态城店)",
        "city": "天津",
        "lat": 39.31821016108707,
        "lng": 117.67766084813819
    },
    {
        "name": "天津麦客达温德姆酒店",
        "city": "天津",
        "lat": 38.96219729407845,
        "lng": 117.72202896575097
    },
    {
        "name": "漫居酒店(天津美岸广场海河东路店)",
        "city": "天津",
        "lat": 39.12993509314441,
        "lng": 117.20567936539359
    },
    {
        "name": "希岸Deluxe酒店(天津友谊武清百货佛罗伦萨小镇店)",
        "city": "天津",
        "lat": 39.376956454395675,
        "lng": 117.07570255301883
    },
    {
        "name": "天津滨海新区瑞达春天精品酒店(滨海高铁站店)",
        "city": "天津",
        "lat": 39.02837610177694,
        "lng": 117.64608199590153
    },
    {
        "name": "天津熊出没酒店",
        "city": "天津",
        "lat": 39.16035734421855,
        "lng": 117.74582067701327
    },
    {
        "name": "天津鼓楼诺富特酒店",
        "city": "天津",
        "lat": 39.144897091644374,
        "lng": 117.2257080748746
    },
    {
        "name": "天津之眼亚朵酒店",
        "city": "天津",
        "lat": 39.15969712320188,
        "lng": 117.19304703399007
    },
    {
        "name": "天津空港东区智选假日酒店",
        "city": "天津",
        "lat": 39.16509068020285,
        "lng": 117.42483923015456
    },
    {
        "name": "天津武清万华酒店",
        "city": "天津",
        "lat": 39.376956454395675,
        "lng": 117.07570255301883
    },
    {
        "name": "ZMAX满兮酒店(天津奥体中心水上公园地铁站店)",
        "city": "天津",
        "lat": 39.08080027746262,
        "lng": 117.18288630036672
    },
    {
        "name": "丽呈東谷酒店(天津西站人民医院地铁站店)",
        "city": "天津",
        "lat": 39.13889192681098,
        "lng": 117.18693424465577
    },
    {
        "name": "丽柏酒店(天津空港滨海国际机场店)",
        "city": "天津",
        "lat": 38.96219729407845,
        "lng": 117.72202896575097
    },
    {
        "name": "天津海教园国家会展中心希尔顿欢朋酒店",
        "city": "天津",
        "lat": 38.98661620149321,
        "lng": 117.37491931499848
    },
    {
        "name": "天津华苑希尔顿花园酒店",
        "city": "天津",
        "lat": 39.07594723126422,
        "lng": 117.1227817566607
    },
    {
        "name": "天津滨海三大街MSD亚朵酒店",
        "city": "天津",
        "lat": 39.00900953444479,
        "lng": 117.22409426902594
    },
    {
        "name": "锦江都城酒店(天津空港滨海国际机场店)",
        "city": "天津",
        "lat": 38.96219729407845,
        "lng": 117.72202896575097
    },
    {
        "name": "天津滨江道CitiGO欢阁酒店",
        "city": "天津",
        "lat": 38.948282092238394,
        "lng": 117.34420202757643
    },
    {
        "name": "天津武清高铁站佛罗伦萨小镇亚朵酒店",
        "city": "天津",
        "lat": 39.382092522180464,
        "lng": 117.02324070276116
    },
    {
        "name": "天津中新生态城国家海博馆亚朵酒店",
        "city": "天津",
        "lat": 39.10115155130472,
        "lng": 117.77359062405708
    },
    {
        "name": "瑞达春天莲花酒店(天津梅江国家会展中心店)",
        "city": "天津",
        "lat": 39.06452374999557,
        "lng": 117.22745779434695
    },
    {
        "name": "天津空港Robin诺宾酒店",
        "city": "天津",
        "lat": 38.96219729407845,
        "lng": 117.72202896575097
    },
    {
        "name": "天津解放南路希尔顿欢朋酒店",
        "city": "天津",
        "lat": 39.09657299591082,
        "lng": 117.23757675676408
    },
    {
        "name": "天津大学海光寺亚朵酒店",
        "city": "天津",
        "lat": 39.116464447509756,
        "lng": 117.18011493803789
    },
    {
        "name": "天津滨江道恒隆广场亚朵S酒店",
        "city": "天津",
        "lat": 38.948282092238394,
        "lng": 117.34420202757643
    },
    {
        "name": "天津滨海响螺湾枫渡酒店",
        "city": "天津",
        "lat": 39.01003459002173,
        "lng": 117.67355370551601
    },
    {
        "name": "天津河东希尔顿欢朋酒店",
        "city": "天津",
        "lat": 39.173165165035506,
        "lng": 117.21610671609231
    },
    {
        "name": "坐忘山林温泉民宿(天津蓟州店)",
        "city": "天津",
        "lat": 40.102981745769824,
        "lng": 117.28891320987887
    },
    {
        "name": "天津仁恒薇乐酒店(海河教育园国家会展中心店)",
        "city": "天津",
        "lat": 38.98661620149321,
        "lng": 117.37491931499848
    },
    {
        "name": "天津天津站希尔顿欢朋酒店",
        "city": "天津",
        "lat": 39.144897091644374,
        "lng": 117.2257080748746
    },
    {
        "name": "天津滨海万达悦华酒店",
        "city": "天津",
        "lat": 38.85719361480678,
        "lng": 117.46541811546516
    },
    {
        "name": "天津之眼逸扉酒店",
        "city": "天津",
        "lat": 39.15969712320188,
        "lng": 117.19304703399007
    },
    {
        "name": "天津南京路希尔顿欢朋酒店",
        "city": "天津",
        "lat": 39.12993509314441,
        "lng": 117.20567936539359
    },
    {
        "name": "凯里亚德酒店(天津于家堡金融中心店)",
        "city": "天津",
        "lat": 39.00945011743266,
        "lng": 117.72449202962876
    },
    {
        "name": "建国铂萃酒店(天津之眼店)",
        "city": "天津",
        "lat": 39.15969712320188,
        "lng": 117.19304703399007
    },
    {
        "name": "天津盛澜国际酒店",
        "city": "天津",
        "lat": 39.144897091644374,
        "lng": 117.2257080748746
    },
    {
        "name": "丽柏酒店(天津静海万达广场店)",
        "city": "天津",
        "lat": 38.947640633937525,
        "lng": 116.97630298223709
    },
    {
        "name": "天津大学鞍山西道地铁站亚朵酒店",
        "city": "天津",
        "lat": 39.116464447509756,
        "lng": 117.18011493803789
    },
    {
        "name": "天津中北海泰产业园亚朵酒店",
        "city": "天津",
        "lat": 39.11413910669765,
        "lng": 117.10127802953231
    },
    {
        "name": "天津河东麦客达温德姆酒店",
        "city": "天津",
        "lat": 39.09110259843554,
        "lng": 117.2080927529767
    },
    {
        "name": "天津津湾广场五大道亚朵酒店",
        "city": "天津",
        "lat": 39.173165165035506,
        "lng": 117.21610671609231
    },
    {
        "name": "天津天保辉盛庭国际公寓",
        "city": "天津",
        "lat": 39.16509068020285,
        "lng": 117.42483923015456
    },
    {
        "name": "格林东方酒店(天津滨海新区中新生态城店)",
        "city": "天津",
        "lat": 39.13104996737928,
        "lng": 117.74812087810213
    },
    {
        "name": "天津生态城希尔顿欢朋酒店",
        "city": "天津",
        "lat": 39.11750024796676,
        "lng": 117.7685698149007
    },
    {
        "name": "璞晶唯庭酒店(东丽广场张贵庄地铁站店)",
        "city": "天津",
        "lat": 39.136599724831555,
        "lng": 117.3682728423607
    },
    {
        "name": "天津北辰希尔顿欢朋酒店",
        "city": "天津",
        "lat": 39.219629015662946,
        "lng": 117.12854088311573
    },
    {
        "name": "美悦酒店(新国家会展中心海河科技园店)",
        "city": "天津",
        "lat": 38.98661620149321,
        "lng": 117.37491931499848
    },
    {
        "name": "天津津南大学城诺富特酒店",
        "city": "天津",
        "lat": 38.98661620149321,
        "lng": 117.37491931499848
    },
    {
        "name": "天津友谊宾馆",
        "city": "天津",
        "lat": 39.12993509314441,
        "lng": 117.20567936539359
    },
    {
        "name": "天津金角酒店(津港公路八里台工业园店)",
        "city": "天津",
        "lat": 38.98661620149321,
        "lng": 117.37491931499848
    },
    {
        "name": "天津锦龙国际酒店",
        "city": "天津",
        "lat": 39.101184100198864,
        "lng": 117.17412440808349
    },
    {
        "name": "天津光合谷(天沐)温泉度假酒店",
        "city": "天津",
        "lat": 38.894873642533994,
        "lng": 117.1728057854254
    },
    {
        "name": "天津有园酒店(梅江会展中心解放南路地铁站店)",
        "city": "天津",
        "lat": 39.04337412377777,
        "lng": 117.22081401662571
    },
    {
        "name": "天津白云宾馆",
        "city": "天津",
        "lat": 39.39022645857064,
        "lng": 117.06719173712564
    },
    {
        "name": "璞晶唯庭酒店(津昆桥店)",
        "city": "天津",
        "lat": 39.13490662049066,
        "lng": 117.28707285138057
    },
    {
        "name": "维也纳国际酒店(天津五大道滨江道步行街店)",
        "city": "天津",
        "lat": 39.12993509314441,
        "lng": 117.20567936539359
    },
    {
        "name": "桔子水晶天津津湾广场酒店",
        "city": "天津",
        "lat": 39.144897091644374,
        "lng": 117.2257080748746
    },
    {
        "name": "天津奥蓝颐泉度假酒店",
        "city": "天津",
        "lat": 39.43840933883746,
        "lng": 117.02652400940012
    },
    {
        "name": "瑞达春天精品酒店(天津卫国道靖江路地铁站店)",
        "city": "天津",
        "lat": 39.144897091644374,
        "lng": 117.2257080748746
    },
    {
        "name": "天津盛世澜湾温泉酒店",
        "city": "天津",
        "lat": 38.938724501226986,
        "lng": 116.96651100302556
    },
    {
        "name": "璞晶唯庭酒店(天津机场店)",
        "city": "天津",
        "lat": 39.17107638921579,
        "lng": 117.37306422428982
    }
]